City,Cloudiness,Country,Date,Humidity,Lat,Lng,Max Temp,Wind Speed
Saint Paul Harbor,90,US,1619913820,61,57.79,-152.4072,46.4,12.66
Mahébourg,40,MU,1619913820,94,-20.4081,57.7,73.4,3.44
Harper,100,LR,1619913821,81,4.375,-7.7169,80.46,7.45
Mossamedes,19,AO,1619913821,78,-15.1961,12.1522,76.53,5.3
Kaeo,0,NZ,1619913821,63,-35.1,173.7833,66.99,4.0
Albany,40,US,1619913612,37,42.6001,-73.9662,51.8,9.22
Pangnirtung,75,CA,1619913822,73,66.1451,-65.7125,34.75,6.26
Tiksi,100,RU,1619913822,97,71.6872,128.8694,23.63,3.96
Barrow,90,US,1619913822,86,71.2906,-156.7887,21.2,10.36
Ambulu,93,ID,1619913823,82,-8.345,113.6058,77.47,1.97
Bengkulu,69,ID,1619913823,86,-3.8004,102.2655,76.1,4.12
Bluff,60,NZ,1619913823,75,-46.6,168.3333,57.99,4.0
Jamestown,90,US,1619913555,35,42.097,-79.2353,55.99,20.71
Nikolskoye,0,RU,1619913824,75,59.7035,30.7861,37.4,2.24
Busselton,5,AU,1619913824,98,-33.65,115.3333,55.0,3.49
Avarua,75,CK,1619913824,74,-21.2078,-159.775,80.6,11.5
Hobart,0,AU,1619913824,59,-42.8794,147.3294,64.0,6.91
Cape Town,0,ZA,1619913526,93,-33.9258,18.4232,57.99,2.3
Port Lincoln,100,AU,1619913825,71,-34.7333,135.8667,61.48,12.37
Maunabo,9,PR,1619913825,84,18.0072,-65.8993,79.0,3.0
Punta Arenas,40,CL,1619913750,87,-53.15,-70.9167,41.0,4.61
Ushuaia,75,AR,1619913826,81,-54.8,-68.3,37.4,5.75
Haizhou,2,CN,1619913826,42,34.5817,119.1289,56.82,11.95
Narsaq,20,GL,1619913826,24,60.9167,-46.05,44.6,37.98
Sotouboua,99,TG,1619913827,83,8.5667,0.9833,74.16,3.87
Ndélé,69,CF,1619913827,62,8.4109,20.6473,75.02,5.28
Labuan,20,MY,1619913827,94,5.2767,115.2417,78.8,3.44
Ilulissat,14,GL,1619913827,49,69.2167,-51.1,42.8,11.5
Mataura,21,NZ,1619913829,75,-46.1927,168.8643,57.99,4.0
Marystown,100,CA,1619913789,95,47.1666,-55.1483,38.37,16.71
Provideniya,47,RU,1619913829,54,64.3833,-173.3,27.01,4.9
Cabo San Lucas,1,MX,1619913713,47,22.8909,-109.9124,78.8,6.91
Nong’an,1,CN,1619913830,76,44.382,125.1685,46.4,2.24
Touros,20,BR,1619913830,88,-5.1989,-35.4608,77.0,3.44
Akureyri,90,IS,1619913830,80,65.6835,-18.0878,33.8,8.05
Yellowknife,20,CA,1619913682,59,62.456,-114.3525,34.0,6.91
Finschhafen,12,PG,1619913831,67,-6.6024,147.8681,84.11,7.18
Bathsheba,20,BB,1619913831,65,13.2167,-59.5167,78.8,12.66
Upernavik,8,GL,1619913831,83,72.7868,-56.1549,23.31,5.79
Longyearbyen,20,SJ,1619913831,67,78.2186,15.6401,17.6,9.22
Klaksvík,90,FO,1619913832,75,62.2266,-6.589,37.4,3.44
Faanui,53,PF,1619913832,66,-16.4833,-151.75,80.74,2.86
George Town,20,MY,1619913618,94,5.4112,100.3354,79.0,4.56
Rikitea,93,PF,1619913833,80,-23.1203,-134.9692,75.67,8.52
Castro,62,BR,1619913833,96,-24.7911,-50.0119,55.78,5.61
Broome,1,US,1619913833,28,42.2506,-75.833,53.6,3.44
Magdalena,7,PH,1619913834,66,14.1999,121.429,86.0,5.99
Saskylakh,100,RU,1619913834,92,71.9167,114.0833,33.01,1.79
Datong,41,CN,1619913685,22,40.0936,113.2914,47.62,5.88
Vila,37,PT,1619913835,83,42.0304,-8.1588,44.01,1.99
Nālūt,100,LY,1619913835,31,30.3333,10.85,76.59,16.37
Hamilton,1,US,1619913787,42,39.1834,-84.5333,69.8,11.5
Sampit,91,ID,1619913836,95,-2.5333,112.95,76.6,2.46
Port Alfred,0,ZA,1619913836,65,-33.5906,26.891,60.73,5.79
Hasaki,40,JP,1619913837,40,35.7333,140.8333,68.0,16.11
Arraial do Cabo,100,BR,1619913837,68,-22.9661,-42.0278,72.99,12.44
Milledgeville,1,US,1619913837,53,33.0801,-83.2321,72.0,4.03
Lorengau,89,PG,1619913837,75,-2.0226,147.2712,82.72,1.32
Bredasdorp,71,ZA,1619913838,87,-34.5322,20.0403,48.2,4.61
Luanda,20,AO,1619913789,89,-8.8368,13.2343,78.8,4.61
Vysokogornyy,100,RU,1619913838,75,50.1167,139.15,35.04,8.01
Puerto Plata,20,DO,1619913681,78,19.7934,-70.6884,80.6,11.5
Norman Wells,20,CA,1619913839,34,65.282,-126.8329,48.2,13.8
Khatanga,62,RU,1619913839,92,71.9667,102.5,25.12,2.98
Saint-Philippe,0,RE,1619913839,73,-21.3585,55.7679,73.4,5.75
Panabá,11,MX,1619913839,40,21.2833,-88.2667,89.24,14.34
Egvekinot,100,RU,1619913840,67,66.3167,-179.1667,19.22,2.35
Dingle,37,PH,1619913840,68,10.9995,122.6711,84.36,11.03
Osa,100,RU,1619913841,96,57.2829,55.4567,46.38,6.24
Thompson,90,CA,1619913610,86,55.7435,-97.8558,23.0,9.22
Cidreira,0,BR,1619913841,77,-30.1811,-50.2056,69.85,17.96
Dunedin,5,NZ,1619913841,53,-45.8742,170.5036,60.12,10.69
Iskateley,100,RU,1619913842,92,67.6803,53.1512,30.47,23.29
Lompoc,90,US,1619913784,82,34.6391,-120.4579,62.01,19.57
Atasū,98,KZ,1619913842,37,48.6814,71.6433,40.33,9.44
Atuona,2,PF,1619913816,68,-9.8,-139.0333,79.39,6.82
Brae,46,GB,1619913842,75,60.3964,-1.353,41.0,1.14
Qeshm,40,IR,1619913843,73,26.9581,56.2719,78.8,4.61
Aklavik,90,CA,1619913843,74,68.2191,-135.0107,26.6,6.91
Plaster Rock,1,CA,1619913843,31,46.9065,-67.39,44.6,6.91
Kapaa,40,US,1619913844,69,22.0752,-159.319,80.6,13.8
Walvis Bay,0,NA,1619913844,82,-22.9575,14.5053,59.0,2.3
Cairns,75,AU,1619913844,69,-16.9167,145.7667,81.0,13.8
Chui,0,UY,1619913844,91,-33.6971,-53.4616,62.28,6.85
Ola,94,RU,1619913845,59,59.5833,151.2833,36.16,5.86
Simmerath,90,DE,1619913845,81,50.6,6.3,39.99,8.05
Henties Bay,16,NA,1619913846,61,-22.116,14.2845,66.4,2.21
Qasigiannguit,15,GL,1619913846,49,68.8193,-51.1922,42.8,11.5
Butaritari,99,KI,1619913846,74,3.0707,172.7902,83.1,10.4
Omboué,87,GA,1619913847,92,-1.5746,9.2618,78.1,4.97
Puerto Escondido,75,MX,1619913847,69,15.85,-97.0667,82.4,9.89
Ancud,0,CL,1619913850,82,-41.8697,-73.8203,53.01,9.22
Ternate,85,ID,1619913851,73,0.8,127.4,82.36,4.36
Kaitangata,10,NZ,1619913851,53,-46.2817,169.8464,62.01,13.0
Acapulco de Juárez,75,MX,1619913569,70,16.8634,-99.8901,84.2,12.66
Pasni,10,PK,1619913851,78,25.2631,63.471,81.39,8.86
Hong Kong,93,HK,1619913616,86,22.2855,114.1577,80.01,1.88
Fortuna,90,US,1619913666,82,40.5982,-124.1573,55.99,16.11
Constitución,100,CL,1619913656,93,-35.3333,-72.4167,55.02,13.02
Longyan,73,CN,1619913852,54,25.1072,117.0225,76.55,1.57
Leh,37,IN,1619913800,49,34.1667,77.5833,36.54,0.78
Mackay,40,AU,1619913852,78,-21.15,149.2,73.99,14.97
Pochutla,75,MX,1619913853,70,15.7432,-96.4661,84.99,11.5
Hilo,90,US,1619913853,61,19.7297,-155.09,82.4,13.8
Nome,90,US,1619913853,74,64.5011,-165.4064,26.6,9.22
Lebu,100,CL,1619913854,94,-37.6167,-73.65,55.36,14.74
Inhambane,82,MZ,1619913854,70,-23.865,35.3833,71.13,14.52
Sinnamary,88,GF,1619913855,88,5.3833,-52.95,78.03,9.71
Northam,10,GB,1619913855,85,51.0333,-4.2167,43.0,3.87
Laichow,5,CN,1619913855,45,37.1717,119.9214,56.01,8.7
Hermanus,43,ZA,1619913855,69,-34.4187,19.2345,57.99,1.01
Vao,100,NC,1619913856,66,-22.6667,167.4833,74.84,24.76
Isangel,90,VU,1619913856,78,-19.55,169.2667,78.8,9.22
Kibaya,60,TZ,1619913856,97,-5.3,36.5667,58.95,4.29
Sebring,90,US,1619913797,65,27.4956,-81.4409,82.4,11.5
Severo-Kuril'sk,100,RU,1619913857,97,50.6789,156.125,35.6,23.29
Tuktoyaktuk,75,CA,1619913857,86,69.4541,-133.0374,15.8,5.75
Cowra,100,AU,1619913857,75,-33.8333,148.6833,57.99,1.01
Leningradskiy,100,RU,1619913858,90,69.3833,178.4167,17.35,20.24
Mount Isa,2,AU,1619913858,41,-20.7333,139.5,80.6,13.8
Bogalusa,1,US,1619913858,44,30.791,-89.8487,77.0,6.91
Povenets,16,RU,1619913859,67,62.8487,34.8262,28.2,6.91
Ingham,1,US,1619913859,37,42.6,-84.3833,69.8,11.5
Sühbaatar,100,MN,1619913859,96,50.2314,106.2078,37.31,8.05
Ust-Nera,100,RU,1619913859,95,64.5667,143.2,36.16,2.3
Kisanga,77,TZ,1619913860,95,-7.4362,37.7034,71.91,2.1
Petatlán,75,MX,1619913860,66,17.5167,-101.2667,86.0,11.5
Yulara,34,AU,1619913675,42,-25.2406,130.9889,66.2,10.36
Mhlume,6,SZ,1619913860,26,-26.0333,31.85,89.6,8.05
Benguela,100,AO,1619913861,86,-12.5763,13.4055,78.55,1.39
Beringovskiy,96,RU,1619913861,79,63.05,179.3167,21.33,13.22
Praia,40,CV,1619913861,78,14.9215,-23.5087,71.6,19.57
Ribeira Grande,99,PT,1619913862,92,38.5167,-28.7,60.58,13.13
Lagoa,100,PT,1619913862,88,39.05,-27.9833,60.75,19.98
Lumberton,1,US,1619913862,30,34.6182,-79.0086,71.6,3.44
Kloulklubed,90,PW,1619913863,89,7.0419,134.2556,82.4,9.22
Lázaro Cárdenas,99,MX,1619913863,65,17.9583,-102.2,81.18,11.03
Kamariótissa,0,GR,1619913863,100,40.4833,25.4667,60.8,5.3
Necochea,66,AR,1619913863,80,-38.5473,-58.7368,55.99,5.01
Barsovo,0,RU,1619913864,69,61.1667,73.1667,35.6,11.18
Pitimbu,20,BR,1619913864,94,-7.4706,-34.8086,75.2,3.44
Kalianget,90,ID,1619913864,76,-7.05,113.9333,83.19,11.77
Iquique,0,CL,1619913838,72,-20.2208,-70.1431,62.6,8.05
Stornoway,75,GB,1619913865,87,58.2093,-6.3865,37.99,5.75
Nha Trang,20,VN,1619913734,69,12.25,109.1833,80.6,6.91
Sindou,74,BF,1619913865,45,10.6667,-5.1667,84.2,3.2
Delījān,15,IR,1619913865,57,33.9905,50.6838,61.61,0.6
Thinadhoo,67,MV,1619913866,70,0.5333,72.9333,83.19,2.98
Vaini,40,TO,1619913866,74,-21.2,-175.2,80.6,12.66
Barra Patuca,0,HN,1619913866,75,15.8,-84.2833,81.03,16.64
Vung Tau,59,VN,1619913649,75,10.346,107.0843,83.73,16.71
Bandarbeyla,73,SO,1619913867,74,9.4942,50.8122,83.37,7.07
Makkah al Mukarramah,91,SA,1619913617,47,21.4267,39.8261,82.94,3.11
Dikson,100,RU,1619913867,93,73.5069,80.5464,20.93,7.85
Dourbali,63,TD,1619913782,23,11.8091,15.8632,88.7,3.33
San Quintín,95,MX,1619913867,71,30.4833,-115.95,64.62,17.0
Plettenberg Bay,0,ZA,1619913868,67,-34.0527,23.3716,58.26,3.96
Juan de Ayolas,1,PY,1619913868,65,-27.4,-56.9,67.15,5.01
Katsuura,11,JP,1619913868,78,35.1333,140.3,68.0,15.99
Vila Franca do Campo,75,PT,1619913869,100,37.7167,-25.4333,59.0,14.97
Anadyr,40,RU,1619913870,79,64.75,177.4833,14.0,8.95
Guerrero Negro,69,MX,1619913870,63,27.9769,-114.0611,67.78,21.12
Pevek,77,RU,1619913870,83,69.7008,170.3133,15.49,9.26
Nantucket,1,US,1619913871,71,41.2835,-70.0995,51.8,9.22
Kupang,7,ID,1619913633,71,-10.1667,123.5833,80.8,11.54
Bilibino,68,RU,1619913871,61,68.0546,166.4372,18.48,3.31
Agde,0,FR,1619913871,81,43.3108,3.4758,51.01,10.36
Igarka,86,RU,1619913872,93,67.4667,86.5833,23.83,5.97
Apatity,21,RU,1619913872,100,67.5641,33.4031,21.99,3.18
Port Macquarie,77,AU,1619913872,93,-31.4333,152.9167,66.99,1.01
Canto do Buriti,80,BR,1619913873,60,-8.11,-42.9444,77.68,4.54
Geraldton,72,AU,1619913670,66,-28.7667,114.6,50.0,5.75
Chapais,90,CA,1619913762,39,49.7834,-74.8492,44.6,16.11
Coyhaique,90,CL,1619913873,93,-45.5752,-72.0662,42.8,3.44
Mbandaka,93,CD,1619913874,96,0.0487,18.2603,71.44,3.0
Lüderitz,0,NA,1619913874,25,-26.6481,15.1594,76.35,20.04
Prescott,1,US,1619913782,10,34.54,-112.4685,77.0,19.57
San Cristobal,75,VE,1619913875,94,7.7669,-72.225,77.0,3.44
Mar del Plata,0,AR,1619913875,82,-38.0023,-57.5575,60.01,3.44
Palmerston North,6,NZ,1619913575,76,-40.35,175.6167,57.0,1.99
Tabuk,9,PH,1619913875,74,17.4189,121.4443,80.33,3.58
Rocha,1,UY,1619913592,91,-34.4833,-54.3333,59.32,5.21
Banda Aceh,59,ID,1619913876,78,5.5577,95.3222,80.92,6.13
Saint George,1,US,1619913662,7,37.1041,-113.5841,91.0,23.02
Hobyo,98,SO,1619913876,66,5.3505,48.5268,83.79,9.91
East London,0,ZA,1619913876,66,-33.0153,27.9116,60.42,5.48
Souillac,40,MU,1619913877,94,-20.5167,57.5167,73.4,3.44
Tasiilaq,2,GL,1619913877,93,65.6145,-37.6368,24.8,2.37
Dawei,36,MM,1619913877,78,14.0833,98.2,78.21,2.86
Carnarvon,100,AU,1619913877,64,-24.8667,113.6333,68.0,8.05
Hambantota,95,LK,1619913878,82,6.1241,81.1185,79.21,2.3
Mitchell,1,US,1619913878,18,43.7094,-98.0298,84.99,12.66
Prome,1,MM,1619913878,68,18.8167,95.2167,81.37,4.27
Bambous Virieux,40,MU,1619913879,94,-20.3428,57.7575,75.0,3.44
Yaan,62,NG,1619913879,71,7.3833,8.5667,81.21,10.56
Nebolchi,54,RU,1619913879,87,59.1239,33.3454,30.79,1.9
Shangrao,0,CN,1619913880,72,28.4532,117.9686,74.77,5.39
Korsholm,0,FI,1619913655,86,63.1142,21.6822,36.0,1.14
Wasilla,1,US,1619913880,24,61.5814,-149.4394,53.6,3.44
Coquimbo,0,CL,1619913880,94,-29.9533,-71.3436,57.2,1.66
Salmās,90,IR,1619913881,87,38.1973,44.7653,50.0,4.61
Poum,91,NC,1619913881,71,-20.2333,164.0167,77.72,6.89
Ashland,20,US,1619913881,34,40.8167,-82.2665,64.4,19.57
New Norfolk,100,AU,1619913882,69,-42.7826,147.0587,64.0,2.39
Changji,84,CN,1619913621,62,44.0167,87.3167,50.0,4.47
Vestmannaeyjar,63,IS,1619913882,65,63.4427,-20.2734,39.56,13.73
Tazmalt,44,DZ,1619913882,84,36.3868,4.3989,57.99,4.14
Yarim,100,YE,1619913883,78,14.298,44.3779,53.74,6.42
Padang,75,ID,1619913638,94,-0.9492,100.3543,77.0,2.3
Sabha,99,LY,1619913884,4,27.0377,14.4283,81.59,11.92
Port Blair,40,IN,1619913834,75,11.6667,92.75,82.36,3.18
Galle,93,LK,1619913885,86,6.0367,80.217,78.28,2.77
Takoradze,99,GH,1619913885,83,4.8845,-1.7554,81.21,7.29
Kitimat,75,CA,1619913885,54,54.0524,-128.6534,55.4,11.5
Porecatu,0,BR,1619913885,50,-22.7558,-51.3792,77.0,8.05
Chattanooga,75,US,1619913741,21,35.0456,-85.3097,73.4,2.24
Waddān,72,LY,1619913886,6,29.1614,16.139,83.62,8.19
Shingū,75,JP,1619913886,58,33.7333,135.9833,57.2,13.8
Bairiki Village,40,KI,1619913886,74,1.3292,172.9752,86.0,6.91
Broken Hill,0,AU,1619913887,49,-31.95,141.4333,69.8,10.36
Saldanha,2,ZA,1619913887,67,-33.0117,17.9442,57.2,5.75
Kavieng,33,PG,1619913887,69,-2.5744,150.7967,84.09,3.02
Kharp,100,RU,1619913888,96,66.8014,65.8081,26.6,9.01
Qaanaaq,84,GL,1619913888,64,77.484,-69.3632,30.29,6.46
Kahului,40,US,1619913888,61,20.8947,-156.47,82.4,26.46
Aksu,86,CN,1619913888,25,41.1231,80.2644,68.16,2.51
Makakilo City,75,US,1619913889,54,21.3469,-158.0858,84.2,14.97
Mareeba,26,AU,1619913889,77,-17.0,145.4333,81.0,1.99
Seoul,40,KR,1619913630,81,37.5683,126.9778,50.0,5.75
Noumea,75,NC,1619913891,57,-22.2763,166.4572,80.6,8.05
Laas,75,IT,1619913891,100,46.6166,10.7002,51.01,3.44
Torbay,90,CA,1619913891,81,47.6666,-52.7314,42.01,23.02
Opuwo,62,NA,1619913891,51,-18.0607,13.84,69.76,3.4
Ṭikāpur,28,NP,1619913892,67,28.5,81.1333,82.99,2.98
Cabras,38,IT,1619913892,93,39.93,8.5314,50.0,10.0
Merauke,65,ID,1619913892,73,-8.4667,140.3333,82.31,13.56
Port Hardy,40,CA,1619913893,66,50.6996,-127.4199,51.8,13.8
Malanje,100,AO,1619913893,98,-9.5402,16.341,63.12,3.69
Paphos,0,CY,1619913715,52,34.7667,32.4167,64.4,5.75
Airai,73,TL,1619913893,67,-8.9266,125.4092,65.35,3.87
Liepāja,14,LV,1619913894,93,56.5419,21.0367,28.4,3.44
Camaná,58,PE,1619913894,86,-16.6228,-72.7111,66.72,7.61
Arrondissement de Montbrison,90,FR,1619913629,100,45.6667,4.0833,45.0,3.44
Huehuetán,75,MX,1619913894,83,15.0167,-92.3667,80.6,4.61
Zhangye,100,CN,1619913895,31,38.9342,100.4517,62.53,13.0
Salgueiro,99,BR,1619913895,85,-8.0742,-39.1192,71.24,18.21
Xining,27,CN,1619913895,35,36.6167,101.7667,54.57,2.42
Dwārka,70,IN,1619913896,75,22.2394,68.9678,81.7,7.63
Sorgun,83,TR,1619913896,75,39.8101,35.186,52.97,0.85
Puerto Ayora,96,EC,1619913896,91,-0.7393,-90.3518,75.99,6.89
Kumul,100,CN,1619913897,26,42.8,93.45,60.37,17.09
Savé,98,BJ,1619913897,86,8.0425,2.486,77.63,6.58
Havre-St-Pierre,75,CA,1619913897,87,50.2334,-63.5986,39.2,16.11
Vardø,96,NO,1619913898,68,70.3705,31.1107,33.35,15.43
Portobelo,81,PA,1619913898,16,9.55,-79.65,81.0,3.0
Haines Junction,97,CA,1619913898,37,60.7522,-137.5108,48.2,6.91
Rio de Janeiro,75,BR,1619913673,88,-22.9028,-43.2075,73.0,6.91
Guiren,14,CN,1619913688,43,33.6697,118.1889,56.71,12.15
Statesboro,1,US,1619913900,49,32.4488,-81.7832,73.4,5.75
Örnsköldsvik,46,SE,1619913900,93,63.2909,18.7153,23.0,4.61
Kiruna,75,SE,1619913901,79,67.8557,20.2251,19.4,3.44
Sembakung,20,ID,1619913901,100,3.8167,117.25,77.0,2.3
Simitli,100,BG,1619913901,67,41.8833,23.1167,67.78,4.79
Channel-Port aux Basques,100,CA,1619913902,92,47.5702,-59.1367,37.02,23.26
Laguna,1,US,1619913902,41,38.421,-121.4238,79.0,16.11
Quatre Cocos,40,MU,1619913902,94,-20.2078,57.7625,75.0,3.44
Lavrentiya,46,RU,1619913903,72,65.5833,-171.0,23.02,2.57
Sitka,40,US,1619913903,71,57.0531,-135.33,46.4,9.22
Katiola,20,CI,1619913903,83,8.1333,-5.1,78.8,4.61
Kaihua,100,CN,1619913904,90,23.3687,104.28,65.08,5.77
Aden,69,YE,1619913904,74,12.7794,45.0367,84.18,13.96
Rongai,82,KE,1619913904,77,-0.1733,35.8638,57.99,3.44
Ponta do Sol,91,PT,1619913905,67,32.6667,-17.1,57.0,3.0
Suntar,100,RU,1619913905,97,62.1444,117.6319,36.64,2.37
Port Hawkesbury,90,CA,1619913905,87,45.6169,-61.3485,39.99,5.75
Yabrūd,0,SY,1619913905,32,33.9674,36.6574,64.4,11.5
Yangjiang,93,CN,1619913906,78,21.85,111.9667,78.28,1.45
Dabakala,26,CI,1619913906,84,8.3667,-4.4333,74.39,8.05
Havøysund,40,NO,1619913906,86,70.9963,24.6622,24.8,4.79
Zyryanka,93,RU,1619913907,84,65.75,150.85,32.2,3.53
Yerbogachën,44,RU,1619913907,86,61.2767,108.0108,37.04,4.97
Agua Verde,1,MX,1619913907,50,22.9,-106.05,81.0,9.22
Adrar,32,MR,1619913907,29,20.5022,-10.0711,83.35,9.93
Alofi,22,NU,1619913908,83,-19.0595,-169.9187,82.4,8.05
Karlshamn,71,SE,1619913908,93,56.1706,14.8619,37.99,6.91
Poso,75,ID,1619913908,73,-1.3959,120.7524,81.79,3.49
Yanaul,100,RU,1619913909,97,56.2719,54.9309,49.3,7.54
Nouadhibou,66,MR,1619913909,64,20.931,-17.0347,68.0,17.27
Minas,20,UY,1619913909,82,-34.3759,-55.2377,64.99,6.91
Sørland,100,NO,1619913910,62,67.667,12.6934,35.8,11.77
Lima,0,PE,1619913910,88,-12.0432,-77.0282,64.99,6.91
Qaqortoq,20,GL,1619913910,24,60.7167,-46.0333,44.6,37.98
Recodo,75,PH,1619913910,100,6.9519,121.9636,78.8,2.3
Cochrane,90,CA,1619913644,87,51.1834,-114.4687,39.0,14.97
Beitbridge,69,ZW,1619913911,73,-22.2167,30.0,62.13,14.14
Iracoubo,91,GF,1619913911,88,5.4802,-53.2011,77.81,9.8
Rincon,20,US,1619913911,64,32.296,-81.2354,69.8,8.05
Philadelphia,40,US,1619913639,22,39.9523,-75.1638,64.4,12.66
Tres Arroyos,98,AR,1619913912,73,-38.3739,-60.2798,57.67,9.15
Pozo Colorado,0,PY,1619913912,48,-23.4923,-58.7972,73.26,5.41
San Patricio,75,US,1619913912,88,28.017,-97.5169,73.99,3.44
Khandyga,100,RU,1619913913,79,62.6667,135.6,40.82,1.01
La Ronge,94,CA,1619913788,50,55.1001,-105.2842,53.6,9.22
Margate,30,GB,1619913664,74,51.3813,1.3862,46.0,1.99
Grua,0,NO,1619913913,86,60.2667,10.6667,42.01,3.44
Caconda,100,AO,1619913914,94,-13.7333,15.0667,59.36,1.5
Talnakh,53,RU,1619913914,96,69.4865,88.3972,15.3,0.78
Islamabad,41,PK,1619913855,40,33.7104,73.1338,73.51,6.53
Jūybār,88,IR,1619913914,93,36.6412,52.9124,59.88,4.74
Chokurdakh,64,RU,1619913915,87,70.6333,147.9167,20.95,4.41
Dakoro,4,NE,1619913915,6,14.5106,6.765,83.73,9.26
Tatarbunary,87,UA,1619913915,86,45.8373,29.6142,56.97,7.29
Buala,99,SB,1619913915,69,-8.145,159.5921,84.07,1.66
Saint-Joseph,0,RE,1619913916,73,-21.3667,55.6167,73.4,5.75
Assiut,0,EG,1619913916,24,27.181,31.1837,78.8,11.5
São Filipe,8,CV,1619913916,72,14.8961,-24.4956,72.72,10.74
Tezu,97,IN,1619913917,90,27.9167,96.1667,70.07,3.71
Teya,100,RU,1619913917,95,60.3778,92.6267,33.82,7.47
Karratha,4,AU,1619913917,51,-20.7377,116.8463,81.66,3.49
Wynyard,100,AU,1619913918,52,-41.0,145.7167,64.99,1.99
Bethel,1,US,1619913918,24,41.3712,-73.414,57.2,4.38
Garissa,46,KE,1619913829,75,-0.4536,39.6401,79.59,12.77
Hithadhoo,84,MV,1619913918,71,-0.6,73.0833,83.77,4.85
Cedar City,1,US,1619913628,9,37.6775,-113.0619,78.8,29.93
Pisco,0,PE,1619913919,78,-13.7,-76.2167,69.8,4.61
Marfino,0,RU,1619913919,52,55.7028,37.3822,44.01,6.71
Harboøre,91,DK,1619913920,3,56.6175,8.1807,41.0,6.96
Los Llanos de Aridane,20,ES,1619913920,60,28.6585,-17.9182,68.0,11.5
Mosquera,75,CO,1619913703,94,4.7059,-74.2302,57.2,8.05
Liverpool,12,GB,1619913720,87,53.4106,-2.9779,44.6,4.61
Sibul Springs,75,PH,1619913920,74,15.169,121.0616,86.0,4.61
Lufkin,90,US,1619913849,83,31.3382,-94.7291,71.6,10.36
Mildura,3,AU,1619913921,42,-34.2,142.15,71.01,9.22
DeLand,1,US,1619913716,61,29.0283,-81.3031,78.01,8.05
Yumen,78,CN,1619913921,43,40.2833,97.2,55.58,8.28
Marawi,17,PH,1619913922,77,7.9986,124.2928,81.0,5.99
Sarapulka,0,RU,1619913922,61,56.8678,61.0552,48.2,4.47
Uyemskiy,75,RU,1619913922,93,64.4743,40.8524,26.6,4.47
Zonguldak,95,TR,1619913922,55,41.25,31.8333,60.31,5.53
Dom Pedrito,1,BR,1619913923,60,-30.9828,-54.6731,62.83,4.76
Jiuquan,97,CN,1619913923,41,39.7432,98.5174,57.49,16.31
Talcahuano,90,CL,1619913923,94,-36.7167,-73.1167,55.4,2.3
Cabedelo,20,BR,1619913924,94,-6.9811,-34.8339,75.2,3.44
Effingham County,1,US,1619913924,46,32.3669,-81.3332,71.6,6.91
Hafizabad,77,PK,1619913924,38,32.0679,73.6854,77.61,7.49
Ballina,75,AU,1619913925,64,-28.8667,153.5667,73.4,12.66
Sauce,0,UY,1619913925,63,-34.6469,-56.0628,66.2,4.61
Esim,87,GH,1619913788,82,4.8699,-2.2405,81.41,6.02
Sidi Ali,44,DZ,1619913925,61,36.0998,0.4206,56.34,2.91
Mattru,91,SL,1619913926,89,7.6244,-11.8332,78.46,2.39
Nanortalik,51,GL,1619913926,68,60.1432,-45.2371,36.32,13.42
Afşin,49,TR,1619913926,61,38.2477,36.914,54.7,4.68
Nara,40,JP,1619913728,62,34.6851,135.8049,59.0,18.41
Leshukonskoye,33,RU,1619913927,73,64.8989,45.7622,27.21,11.07
La Maná,75,EC,1619913927,93,-0.9333,-79.2167,50.0,5.75
Puerto Madryn,99,AR,1619913927,55,-42.7692,-65.0385,61.57,13.89
Piacenza,100,IT,1619913928,92,45.0468,9.6994,57.0,5.35
Pemangkat,46,ID,1619913928,81,1.1667,108.9667,79.23,5.19
Condega,40,NI,1619913928,57,13.365,-86.3985,77.0,4.72
Cachoeira do Sul,1,BR,1619913667,57,-30.0392,-52.8939,63.88,5.64
Tutóia,100,BR,1619913929,97,-2.7619,-42.2744,74.41,3.96
Tignère,98,CM,1619913929,88,7.3667,12.65,67.24,4.12
College,40,US,1619913929,39,64.8569,-147.8028,44.6,0.94
Tayport,75,GB,1619913929,100,56.447,-2.8797,41.0,3.44
Jagalūr,4,IN,1619913930,63,14.5333,76.35,78.42,2.53
Baoying,3,CN,1619913930,42,33.2292,119.3092,57.6,11.99
Kruisfontein,0,ZA,1619913930,75,-34.0033,24.7314,53.53,4.29
Itarema,99,BR,1619913931,83,-2.9248,-39.9167,77.43,4.79
Grindavik,75,IS,1619913931,60,63.8424,-22.4338,37.4,10.36
Bubaque,13,GW,1619913931,71,11.2833,-15.8333,78.17,15.3
Doka,98,SD,1619913932,51,13.5167,35.7667,81.05,12.97
Pontianak,40,ID,1619913932,94,-0.0333,109.3333,78.8,4.61
Baruun-Urt,94,MN,1619913932,20,46.6806,113.2792,46.96,20.67
San Policarpo,49,PH,1619913933,84,12.1791,125.5072,81.61,9.6
Tank,92,PK,1619913934,37,32.2217,70.3793,82.72,7.29
São Sebastião,100,BR,1619913885,84,-23.76,-45.4097,69.91,7.56
Kamennomostskiy,3,RU,1619913934,93,44.2983,40.1856,51.37,4.63
Ostrovnoy,100,RU,1619913934,93,68.0531,39.5131,29.82,20.11
Naco,62,MX,1619913935,15,31.3347,-109.9483,86.0,14.0
Clyde River,1,CA,1619913935,100,70.4692,-68.5914,19.4,0.34
Atar,5,MR,1619913935,19,20.5169,-13.0499,83.08,4.25
Ringebu,91,NO,1619913936,94,61.5167,10.1667,32.29,1.66
Viedma,100,AR,1619913936,48,-40.8135,-62.9967,64.89,8.59
Batemans Bay,100,AU,1619913936,95,-35.7167,150.1833,68.0,4.27
Yayva,100,RU,1619913936,95,59.3303,57.2641,42.01,4.32
Mankono,21,CI,1619913937,78,8.0586,-6.1897,75.54,6.4
Bay Roberts,85,CA,1619913937,87,47.5999,-53.2648,41.0,5.99
Balkhash,88,KZ,1619913937,38,46.844,74.9804,47.68,22.28
Kanhangad,26,IN,1619913654,88,12.3081,75.1063,79.75,3.87
Swanton,1,US,1619913938,32,41.5887,-83.8911,69.8,16.11
Skibbereen,40,IE,1619913938,81,51.55,-9.2667,42.8,4.61
Lewistown,1,US,1619913917,27,40.5992,-77.5714,60.8,8.05
Abu Dhabi,0,AE,1619913938,83,24.4667,54.3667,78.8,4.61
Sur,44,OM,1619913939,56,22.5667,59.5289,81.77,11.43
Bereda,33,ES,1619913939,99,43.2686,-7.5406,34.0,1.01
Amapá,100,BR,1619913939,99,1.0,-52.0,72.1,2.93
Shestakovo,98,RU,1619913940,82,56.4915,103.96,40.42,1.74
Tūkrah,1,LY,1619913940,21,32.5341,20.5791,83.43,11.52
Cockburn Town,40,TC,1619913940,73,21.4612,-71.1419,78.8,11.5
Eyl,44,SO,1619913940,74,7.9803,49.8164,83.26,8.03
Sibay,76,RU,1619913941,56,52.7181,58.6658,48.54,11.25
Aswān,0,EG,1619913941,15,24.0934,32.907,84.38,9.24
Ushtobe,91,KZ,1619913941,46,45.2514,77.9838,47.59,25.32
Kieta,95,PG,1619913942,66,-6.2167,155.6333,85.53,2.46
Paamiut,58,GL,1619913942,69,61.994,-49.6678,37.47,6.55
Arlit,0,NE,1619913942,4,18.7369,7.3853,86.52,10.0
Iqaluit,90,CA,1619913942,75,63.7506,-68.5145,37.4,16.11
Kushiro,75,JP,1619913943,75,42.975,144.3747,39.2,12.66
Maceió,75,BR,1619913859,83,-9.6658,-35.7353,78.8,4.61
Bafoulabé,38,ML,1619913943,38,13.8065,-10.8321,90.05,9.24
Cherskiy,42,RU,1619913943,76,68.75,161.3,19.89,0.74
Sabang,58,ID,1619913944,73,5.8933,95.3214,83.97,12.88
Kargopol',7,RU,1619913944,59,61.5071,38.9456,27.79,6.67
Darhan,99,MN,1619913945,85,49.4867,105.9228,41.07,9.13
Cayenne,40,GF,1619913946,89,4.9333,-52.3333,81.0,7.49
Semeykino,100,UA,1619913946,75,48.3264,39.5337,58.93,1.86
Smolenka,40,RU,1619913946,65,52.1352,113.4974,42.8,2.24
Rantauprapat,100,ID,1619913946,97,2.1,99.8333,74.95,2.53
Black River,75,JM,1619913947,74,18.0264,-77.8487,82.4,9.22
Sfântu Gheorghe,100,RO,1619913947,76,45.8667,25.7833,62.01,2.35
Shache,48,CN,1619913947,24,38.4167,77.2406,66.69,12.68
Saint-Leu,0,RE,1619913948,73,-21.15,55.2833,73.4,5.75
Jacareacanga,59,BR,1619913948,97,-6.2222,-57.7528,73.54,1.92
Eydhafushi,23,MV,1619913948,73,5.1033,73.0708,83.07,5.03
Port Moresby,1,PG,1619913949,65,-9.4431,147.1797,84.2,9.22
Moose Factory,90,CA,1619913949,86,51.2585,-80.6094,24.8,14.97
Ayan,100,RU,1619913949,90,56.45,138.1667,31.51,7.85
Puerto Baquerizo Moreno,64,EC,1619913766,74,-0.9,-89.6,75.36,8.23
Umm Kaddadah,69,SD,1619913950,23,13.6017,26.6876,82.09,11.39
Brasiléia,23,BR,1619913950,63,-11.0161,-68.7481,75.34,0.07
Kadambūr,100,IN,1619913950,74,8.9833,77.8667,81.45,1.86
The Pas,90,CA,1619913871,54,53.8251,-101.2541,51.8,8.05
Miandrivazo,56,MG,1619913951,87,-19.5167,45.4667,74.03,0.67
Forbes,100,AU,1619913951,50,-33.3833,148.0167,72.0,1.99
Lyndon,1,US,1619913951,35,38.2567,-85.6016,73.4,9.22
Boz,99,FR,1619913952,97,46.4071,4.9109,46.0,0.83
Piaçabuçu,100,BR,1619913952,86,-10.4056,-36.4344,76.75,14.0
Aykhal,100,RU,1619913952,100,66.0,111.5,32.52,2.89
Vanimo,62,PG,1619913952,70,-2.6741,141.3028,84.11,3.65
Lunenburg,34,CA,1619913953,58,44.3835,-64.3155,51.8,14.97
Abay,0,KZ,1619913953,79,49.6311,72.8539,21.2,8.95
Sicuani,73,PE,1619913743,75,-14.2694,-71.2261,45.75,4.21
Florø,9,NO,1619913953,70,61.5996,5.0328,42.8,6.91
Gayny,66,RU,1619913954,94,60.3071,54.3241,33.42,6.82
Port Elizabeth,0,ZA,1619913954,76,-33.918,25.5701,51.8,6.91
Powell River,20,CA,1619913660,41,49.8496,-124.5361,59.0,9.22
Vila Velha,90,BR,1619913954,88,-20.3297,-40.2925,75.0,6.91
Yenagoa,94,NG,1619913955,94,4.9247,6.2642,77.29,4.5
Tsimmerbude,0,RU,1619913955,70,54.675,20.1347,44.01,6.71
Noyabrsk,100,RU,1619913955,83,63.1994,75.4507,31.08,18.45
Saquarema,75,BR,1619913886,78,-22.92,-42.5103,71.6,8.46
Alim,64,PH,1619913956,69,9.5649,122.4876,84.04,8.14
Andenes,20,NO,1619913956,80,69.3143,16.1194,32.0,11.5
Ol'ga,38,RU,1619913956,44,43.7444,135.2892,54.7,1.66
Neosho,100,US,1619913957,58,36.869,-94.368,71.01,11.65
Marzuq,100,YE,1619913957,92,14.4,46.4667,64.33,2.68
Chifeng,16,CN,1619913957,28,42.2683,118.9636,48.65,7.38
Biak,97,ID,1619913957,76,-0.9131,122.8766,79.72,4.43
Primorka,0,RU,1619913958,87,47.2836,39.0625,53.6,4.47
Kita,73,ML,1619913958,49,13.0349,-9.4895,84.65,3.71
Teseney,94,ER,1619913958,52,15.11,36.6575,80.55,8.57
Pokhara,89,NP,1619913782,39,28.2333,83.9833,70.39,5.35
Burnie,100,AU,1619913956,54,-41.0667,145.9167,64.0,1.99
Praia da Vitória,75,PT,1619913959,88,38.7333,-27.0667,62.6,8.9
Cañete,100,CL,1619913682,95,-37.8,-73.4,54.57,6.69
Caravelas,75,BR,1619913959,73,-17.7125,-39.2481,73.58,8.57
Marang,40,MY,1619913960,94,5.2056,103.2059,78.8,2.3
Motygino,67,RU,1619913960,90,58.1831,94.7592,37.58,5.26
Kuyanovo,100,RU,1619913960,93,55.8014,54.5372,50.23,12.3
Taoudenni,22,ML,1619913780,30,22.6783,-3.9836,86.58,13.18
Sheopur,99,IN,1619913961,26,25.6667,76.7,85.82,6.55
Arrondissement du Havre,8,FR,1619913961,87,49.5833,0.3333,41.0,6.91
Ciudad Bolivar,94,VE,1619913961,55,8.1222,-63.5497,85.86,12.39
The Valley,13,AI,1619913854,82,18.217,-63.0578,79.0,4.0
Kovdor,84,RU,1619913963,98,67.5662,30.4758,21.29,3.2
Tongren,100,CN,1619913963,79,27.7172,109.1853,73.78,1.14
Maridi,100,SS,1619913963,92,4.9158,29.4742,66.72,5.08
Shelburne,88,CA,1619913964,48,44.0787,-80.2041,46.99,17.43
Olafsvik,66,IS,1619913964,71,64.8945,-23.7142,35.1,20.07
Abonnema,75,NG,1619913739,89,4.7084,6.7931,80.6,6.13
Loíza,40,PR,1619913965,78,18.4313,-65.8802,80.6,11.5
Kempele,0,FI,1619913965,93,64.9131,25.5034,28.4,5.75
Shamary,100,RU,1619913965,94,57.3434,58.2199,47.84,12.33
Imeni Poliny Osipenko,98,RU,1619913965,64,52.4201,136.4853,39.6,13.09
Salalah,0,OM,1619913784,79,17.0151,54.0924,84.2,3.44
Muros,18,ES,1619913966,87,42.7762,-9.0603,43.0,6.8
Antalaha,10,MG,1619913966,92,-14.9003,50.2788,73.36,3.98
Punta Alta,100,AR,1619913966,57,-38.8759,-62.0736,64.56,6.44
Saint Anthony,1,US,1619913967,18,45.0205,-93.218,86.0,6.91
Madimba,20,TZ,1619913967,94,-10.4,40.3333,77.0,13.8
Hualmay,53,PE,1619913720,85,-11.0964,-77.6139,67.78,8.32
Puerto del Rosario,0,ES,1619913753,63,28.5004,-13.8627,66.2,16.11
Kuraymah,28,SD,1619913967,32,18.55,31.85,84.99,7.54
Mogadishu,88,SO,1619913918,73,2.0371,45.3438,81.97,7.85
Vitória da Conquista,74,BR,1619913968,86,-14.8661,-40.8394,63.57,7.96
Kapit,96,MY,1619913968,97,2.0167,112.9333,76.35,1.12
Imbituba,75,BR,1619913968,82,-28.24,-48.6703,66.2,11.27
Siniscola,0,IT,1619913969,72,40.5719,9.6922,59.0,14.97
Naze,40,JP,1619913969,49,28.3667,129.4833,69.8,10.36
Kangaatsiaq,22,GL,1619913969,84,68.3065,-53.4641,32.52,6.11
Keflavik,75,IS,1619913970,60,64.0049,-22.5624,39.2,10.36
Kedrovyy,0,RU,1619913970,75,56.1667,91.8167,41.0,8.95
Da Lat,19,VN,1619913756,84,11.9465,108.4419,64.2,1.34
Abbeville,79,FR,1619913971,83,50.1,1.8333,39.99,2.57
Udachny,100,RU,1619913971,99,66.4167,112.4,33.17,8.14
Dvinskoy Bereznik,40,RU,1619913971,51,62.8551,42.7072,31.57,11.86
Marsh Harbour,98,BS,1619913971,74,26.5412,-77.0636,78.75,2.3
Gwadar,11,PK,1619913972,75,25.1216,62.3254,81.5,7.94
Saýat,0,TM,1619913972,59,38.7839,63.8803,60.8,6.91
Flinders,100,AU,1619913972,82,-34.5833,150.8552,66.99,1.01
Unity,94,CA,1619913973,30,52.4501,-109.1682,58.39,13.2
Morondava,100,MG,1619913973,82,-20.2833,44.2833,76.08,8.84
Itaqui,2,BR,1619913974,64,-29.1253,-56.5531,66.69,5.41
Cauquenes,100,CL,1619913975,96,-35.9671,-72.3225,53.31,11.74
Semenivka,100,UA,1619913975,79,52.1783,32.5818,49.3,8.19
Yeppoon,75,AU,1619913975,64,-23.1333,150.7333,75.2,11.5
Tuatapere,4,NZ,1619913975,75,-46.1333,167.6833,57.99,4.0
São João da Barra,95,BR,1619913976,75,-21.6403,-41.0511,71.74,10.0
Penzance,20,GB,1619913976,81,50.1186,-5.5371,41.0,8.23
Jumla,67,NP,1619913976,82,29.2747,82.1838,47.84,3.94
Gizo Government Station,100,SB,1619913977,75,-8.103,156.8419,81.05,3.65
Hohhot,0,CN,1619913977,39,40.8106,111.6522,42.8,4.47
Anzio,100,IT,1619913977,99,41.4853,12.6179,62.01,3.2
Ryōtsu-minato,75,JP,1619913978,72,38.0833,138.4333,57.2,17.27
Kununurra,0,AU,1619913978,73,-15.7667,128.7333,75.2,1.14
Zunyi,99,CN,1619913978,83,27.6867,106.9072,70.07,5.46
Srednekolymsk,10,RU,1619913980,78,67.45,153.6833,28.65,7.4
Caernarfon,33,GB,1619913980,93,53.1413,-4.2702,39.2,2.3
Ulladulla,100,AU,1619913980,72,-35.35,150.4667,68.0,5.75
Puerto Cabezas,40,NI,1619913981,84,14.0351,-83.3888,84.2,6.91
Morwell,100,AU,1619913981,63,-38.2333,146.4,66.0,1.01
Sambava,22,MG,1619913981,92,-14.2667,50.1667,74.53,5.35
Orotukan,100,RU,1619913982,93,62.2667,151.7,30.76,2.75
Milazzo,99,IT,1619913982,75,38.2212,15.2383,69.01,5.01
Mehrān,1,IR,1619913982,41,33.1222,46.1646,57.2,1.79
Enshi,98,CN,1619913803,77,30.3,109.4833,73.09,0.27
Manono,100,CD,1619913982,96,-7.3,27.4167,69.89,2.84
Coahuayana Viejo,1,MX,1619913983,50,18.7333,-103.6833,80.6,11.5
Arrecife,20,ES,1619913983,68,28.963,-13.5477,64.4,10.36
San Juan,95,AR,1619913983,39,-31.5375,-68.5364,70.16,12.41
Zima,100,RU,1619913984,69,53.9202,102.0442,41.9,7.4
Gaya,20,IN,1619913759,57,24.7833,85.0,78.8,5.75
Rubizhne,59,UA,1619913984,74,49.0123,38.3797,56.32,3.69
Vostok,79,RU,1619913984,58,46.4856,135.8833,40.77,8.19
Megion,0,RU,1619913985,86,61.0296,76.1136,30.2,6.71
Salinas,90,US,1619913919,77,36.6777,-121.6555,57.99,19.57
Korla,77,CN,1619913985,23,41.7597,86.1469,64.27,17.2
Yala,98,TH,1619913985,93,6.3333,101.25,76.1,2.39
Chickasha,90,US,1619913986,78,35.0526,-97.9364,69.8,12.66
Mount Gambier,75,AU,1619913986,88,-37.8333,140.7667,59.0,8.05
Kulhudhuffushi,55,MV,1619913986,71,6.6221,73.07,83.75,4.99
Teahupoo,20,PF,1619913987,58,-17.8333,-149.2667,87.8,5.75
Karrāpur,88,IN,1619913987,27,23.95,78.85,84.99,15.26
Comodoro Rivadavia,0,AR,1619913987,51,-45.8667,-67.5,57.2,5.75
Paraná,0,AR,1619913926,77,-31.732,-60.5238,71.01,1.01
Barra de Tecoanapa,13,MX,1619913988,68,16.5167,-98.75,83.86,11.03
Shumskiy,100,RU,1619913988,77,54.8318,99.1328,42.19,3.91
Yasnaya Polyana,8,RU,1619913988,93,44.0225,42.7539,53.01,6.71
Iquitos,40,PE,1619913989,94,-3.7481,-73.2472,73.4,0.89
Prince Rupert,90,CA,1619913725,81,54.3161,-130.3201,50.0,8.05
Marabá,99,BR,1619913989,96,-5.3686,-49.1178,73.67,0.69
Atambua,98,ID,1619913989,72,-9.1061,124.8925,76.39,4.88
Ponta Delgada,75,PT,1619913991,100,37.7333,-25.6667,59.0,14.97
El Seibo,20,DO,1619913991,83,18.7641,-69.0375,78.8,8.12
Lakshmīpur,43,BD,1619913991,78,22.95,90.8333,79.16,6.85
Kutum,68,SD,1619913992,18,14.2,24.6667,76.96,10.27
Ludvika,75,SE,1619913992,69,60.1496,15.1878,39.0,2.3
Hay River,100,CA,1619913992,74,60.8156,-115.7999,26.6,10.36
Newport,79,GB,1619913993,89,51.5877,-2.9984,42.01,7.2
Sarti,95,GR,1619913993,76,40.1,23.9833,63.72,5.28
Itaituba,100,BR,1619913993,97,-4.2761,-55.9836,74.5,1.79
Wawa,96,NG,1619913994,54,9.9022,4.4192,84.94,11.16
Ouésso,94,CG,1619913994,98,1.6136,16.0517,70.57,2.37
Kathmandu,90,NP,1619913953,100,27.7167,85.3167,59.0,2.3
